{"name":"Abaigar Jose","phone":"156-685-1259","adress":"Belzu 4895, Munro, Buenos Aires","location":"Buenos Aires"},
{"name":"Abalos Elbio Omar Federico","phone":"1168673284","adress":"Avelino Diaz 2421 1 Piso, CABA, CABA (Capital Federal)","location":"CABA (Capital Federal)"},
{"name":"Abate Lisandro","phone":"2215740187","adress":"27 Nro 2188 1/2, La Plata, Buenos Aires","location":"Buenos Aires"},
{"name":"Abbadie Luis Oscar","phone":"02236081234","adress":"French 4011, Mar del Plata, Buenos Aires","location":"Buenos Aires"},
{"name":"Abbet Diego Nicolas","phone":"03496-15652334","adress":"E. Vollenweider s/n, Las colonias, Santa Fe","location":"Santa Fe"},
{"name":"Abdala Lautaro","phone":"03435-616530 / 03435-414580","adress":"Gr.Hab. San Miguel 74 S/N, Nogoya, Entre Rios","location":"Entre Rios"},
{"name":"Abella Martin Enrique","phone":"03515067315","adress":"Alonso de Retinoso 3265, Córdoba, Cordoba","location":"Cordoba"},
{"name":"Abendaño Diego Orlando","phone":"3888-403909","adress":"Calle s/n - El Puesto, San Pedro, Jujuy","location":"Jujuy"},
{"name":"Abramovich Ezequiel","phone":"1534-285-832","adress":"Murillo 1121 9º I, CABA, CABA (Capital Federal)","location":"CABA (Capital Federal)"},
{"name":"Abrego Marcelino","phone":"4268-7807// 15-3504-4857","adress":"Calle 5 Mza. 4 Edf. 3 S/N 3 C \"B\" Don Orione, Claypole, Buenos Aires","location":"Buenos Aires"},
{"name":"Abregu Walter","phone":"011-550432407","adress":"Sarmiento 2045, Marcos Paz, Buenos Aires","location":"Buenos Aires"},
{"name":"Abt Javier","phone":"03564-312105//03564-15624145","adress":"Honduras 1231, San Francisco, Cordoba","location":"Cordoba"},
{"name":"Acastello Ezequiel","phone":"03493-480596","adress":"Mendoza  103 Humberto 1º, Humberto, Santa Fe","location":"Santa Fe"},
{"name":"Accossato Edgardo Cristian","phone":"20547017","adress":"Rodriguez Peña 3628, Gral. San Martín, Buenos Aires","location":"Buenos Aires"},
{"name":"Accotto Aldo Diego","phone":"0351 153081908","adress":"fragueiro 379, Córdoba, Cordoba","location":"Cordoba"},
{"name":"Acebal Ignacio","phone":"1533233847 / 1561347773","adress":"Terrada 3924, San Justo, Buenos Aires","location":"Buenos Aires"},
{"name":"Aceto Pablo Fabian","phone":"03543 15535158","adress":"Paraguay 261, Unquillo, Cordoba","location":"Cordoba"},
{"name":"Aceval Filiberto","phone":"02320-490160","adress":"Pto Principe 1358, Tortuguitas, Buenos Aires","location":"Buenos Aires"},
{"name":"Acevedo David H.","phone":"15-32827772","adress":"Av. Diaz Velez 3675 7º, CABA, CABA (Capital Federal)","location":"CABA (Capital Federal)"},
{"name":"Acevedo Diego","phone":"03547-492466/0351-153228267","adress":"Necochea 18, Despeñadero, Cordoba","location":"Cordoba"},
